{
    "type": "FeatureCollection",
    "features": [
        {
            "type": "Feature",
            "geometry": {
                "type": "Point",
                "coordinates": [
                    118.788196,
                    32.043263
                ]
            },
            "properties": {
                "店名": "鸭得堡老鸭粉丝汤(丰富路店)",
                "地址": "地址 江苏省南京市秦淮区丰富路134-4号",
                "电话": "电话 (025)84204820"
            }
        },
        {
            "type": "Feature",
            "geometry": {
                "type": "Point",
                "coordinates": [
                    118.790957,
                    32.046527
                ]
            },
            "properties": {
                "店名": "回味鸭血粉丝汤(新百店)",
                "地址": "地址 江苏南京市秦淮区中山南路3号南京新百b1楼",
                "电话": "电话 (025)84731080"
            }
        },
        {
            "type": "Feature",
            "geometry": {
                "type": "Point",
                "coordinates": [
                    118.80334,
                    31.976416
                ]
            },
            "properties": {
                "店名": "回味鸭血粉丝汤(南站南广场店)",
                "地址": "地址 江苏省南京市雨花台区南京南站站内JC-3-3-2号3层A28检票口楼上",
                "电话": "电话 (025)87760051,15862064205"
            }
        },
        {
            "type": "Feature",
            "geometry": {
                "type": "Point",
                "coordinates": [
                    118.794789,
                    32.025253
                ]
            },
            "properties": {
                "店名": "回味鸭血粉丝汤(东牌楼店)",
                "地址": "地址 江苏省南京市秦淮区瞻园路9号瞻园奥特莱斯F1",
                "电话": NaN
            }
        },
        {
            "type": "Feature",
            "geometry": {
                "type": "Point",
                "coordinates": [
                    118.842203,
                    32.046718
                ]
            },
            "properties": {
                "店名": "回味鸭血粉丝汤(中山门店)",
                "地址": "地址 江苏省南京市玄武区中山门大街9号",
                "电话": "电话 (025)85209217"
            }
        },
        {
            "type": "Feature",
            "geometry": {
                "type": "Point",
                "coordinates": [
                    118.797309,
                    32.030472
                ]
            },
            "properties": {
                "店名": "回味鸭血粉丝汤(招商花园里店)",
                "地址": "地址 南京市秦淮区建康路地铁三号线夫子庙站3号口招商花园里F1",
                "电话": "电话 (025)51875113"
            }
        },
        {
            "type": "Feature",
            "geometry": {
                "type": "Point",
                "coordinates": [
                    118.792992,
                    32.04477
                ]
            },
            "properties": {
                "店名": "回味鸭血粉丝汤(印象汇店)",
                "地址": "地址 江苏省南京市秦淮区洪武路88号印象汇F1",
                "电话": "电话 (025)84783883"
            }
        },
        {
            "type": "Feature",
            "geometry": {
                "type": "Point",
                "coordinates": [
                    118.788662,
                    32.087987
                ]
            },
            "properties": {
                "店名": "金中鸭血粉丝&汤包总店(南昌路店)",
                "地址": "地址 江苏省南京市鼓楼区南昌路2号",
                "电话": "电话 15951811785"
            }
        },
        {
            "type": "Feature",
            "geometry": {
                "type": "Point",
                "coordinates": [
                    118.783732,
                    32.073632
                ]
            },
            "properties": {
                "店名": "回味鸭血粉丝汤(湖北路店)",
                "地址": "地址 江苏省南京市鼓楼区湖北路70号",
                "电话": "电话 (025)52643957"
            }
        },
        {
            "type": "Feature",
            "geometry": {
                "type": "Point",
                "coordinates": [
                    118.793055,
                    32.025827
                ]
            },
            "properties": {
                "店名": "鸭得堡老鸭粉丝汤(卓冉瞻园奥特莱斯店)",
                "地址": "地址 江苏省南京市秦淮区瞻园路9号瞻园奥特莱斯F1",
                "电话": NaN
            }
        },
        {
            "type": "Feature",
            "geometry": {
                "type": "Point",
                "coordinates": [
                    118.793234,
                    32.056128
                ]
            },
            "properties": {
                "店名": "回味鸭血粉丝汤(珠江路店)",
                "地址": "地址 江苏省南京市玄武区珠江路48-1号新月大厦一层",
                "电话": "电话 (025)83414775"
            }
        },
        {
            "type": "Feature",
            "geometry": {
                "type": "Point",
                "coordinates": [
                    118.833321,
                    32.081961
                ]
            },
            "properties": {
                "店名": "回味鸭血粉丝汤(花园路店)",
                "地址": "地址 江苏省南京市玄武区花园路1号苏果超市1楼",
                "电话": "电话 (025)85539289"
            }
        },
        {
            "type": "Feature",
            "geometry": {
                "type": "Point",
                "coordinates": [
                    118.795175,
                    32.044246
                ]
            },
            "properties": {
                "店名": "鸭得堡老鸭汤鸭血粉丝(抄纸巷店)",
                "地址": "地址 江苏省南京市秦淮区抄纸巷1~12临",
                "电话": "电话 (025)84524820"
            }
        },
        {
            "type": "Feature",
            "geometry": {
                "type": "Point",
                "coordinates": [
                    118.830245,
                    32.044817
                ]
            },
            "properties": {
                "店名": "金原鸭血粉丝汤(中山东路店)",
                "地址": "地址 玄武区中山东路532-2号蓝湾咖啡隔壁",
                "电话": "电话 18551843150"
            }
        },
        {
            "type": "Feature",
            "geometry": {
                "type": "Point",
                "coordinates": [
                    118.804331,
                    31.983683
                ]
            },
            "properties": {
                "店名": "回味鸭血粉丝汤(明发广场店)",
                "地址": "地址 江苏省南京市雨花台区玉兰路9号明发商业广场永辉超市一层",
                "电话": "电话 (025)85571817,15251705200"
            }
        },
        {
            "type": "Feature",
            "geometry": {
                "type": "Point",
                "coordinates": [
                    118.634881,
                    32.06372
                ]
            },
            "properties": {
                "店名": "回味鸭血粉丝汤(金浦广场店)",
                "地址": "地址 文德路7号金浦假日百货F1",
                "电话": "电话 (025)58187157"
            }
        },
        {
            "type": "Feature",
            "geometry": {
                "type": "Point",
                "coordinates": [
                    118.784721,
                    32.048591
                ]
            },
            "properties": {
                "店名": "回味鸭血粉丝汤(金轮店)",
                "地址": "地址 江苏省南京市鼓楼区汉中路108号金轮大厦1楼",
                "电话": "电话 (025)84715757"
            }
        },
        {
            "type": "Feature",
            "geometry": {
                "type": "Point",
                "coordinates": [
                    118.796637,
                    32.025447
                ]
            },
            "properties": {
                "店名": "老盛庆瘦型桂花盐水鸭(夫子庙店)",
                "地址": "地址 江苏省南京市秦淮区大石坝街73号",
                "电话": "电话 13901596943"
            }
        },
        {
            "type": "Feature",
            "geometry": {
                "type": "Point",
                "coordinates": [
                    118.866003,
                    32.040865
                ]
            },
            "properties": {
                "店名": "回味鸭血粉丝汤(孝陵卫店)",
                "地址": "地址 江苏省南京市玄武区孝陵卫街101号",
                "电话": "电话 (025)84370108"
            }
        },
        {
            "type": "Feature",
            "geometry": {
                "type": "Point",
                "coordinates": [
                    118.834779,
                    31.933778
                ]
            },
            "properties": {
                "店名": "回味鸭血粉丝汤(天元路店)",
                "地址": "地址 江苏省南京市江宁区天元中路229-5号世纪华润苏果超市1层",
                "电话": "电话 (025)52108884"
            }
        },
        {
            "type": "Feature",
            "geometry": {
                "type": "Point",
                "coordinates": [
                    118.754122,
                    32.043895
                ]
            },
            "properties": {
                "店名": "回味鸭血粉丝汤(汉中门大街店)",
                "地址": "地址 江苏省南京市建邺区汉中门大街151号",
                "电话": "电话 (025)83337579"
            }
        },
        {
            "type": "Feature",
            "geometry": {
                "type": "Point",
                "coordinates": [
                    118.768217,
                    32.088075
                ]
            },
            "properties": {
                "店名": "金中鸭血粉丝汤(福建路店)",
                "地址": "地址 江苏省南京市鼓楼区福建路3号萨家湾102室",
                "电话": "电话 17388071183"
            }
        },
        {
            "type": "Feature",
            "geometry": {
                "type": "Point",
                "coordinates": [
                    118.798233,
                    32.054871
                ]
            },
            "properties": {
                "店名": "鸭得堡老鸭粉丝汤(珠江路店)",
                "地址": "地址 江苏省南京市玄武区珠江路通贤桥2号",
                "电话": "电话 (025)84514820"
            }
        },
        {
            "type": "Feature",
            "geometry": {
                "type": "Point",
                "coordinates": [
                    118.731045,
                    32.003473
                ]
            },
            "properties": {
                "店名": "回味鸭血粉丝汤(金奥店)",
                "地址": "地址 江苏省南京市建邺区江东中路333号金奥美学生活馆B1",
                "电话": "电话 (025)84456257"
            }
        },
        {
            "type": "Feature",
            "geometry": {
                "type": "Point",
                "coordinates": [
                    118.743215,
                    32.035857
                ]
            },
            "properties": {
                "店名": "回味鸭血粉丝汤(建邺金街店)",
                "地址": "地址 江苏省南京市建邺区集庆门大街214-22号壹街区214-22室",
                "电话": NaN
            }
        },
        {
            "type": "Feature",
            "geometry": {
                "type": "Point",
                "coordinates": [
                    118.73643,
                    32.010721
                ]
            },
            "properties": {
                "店名": "回味鸭血粉丝汤(奥体东站店)",
                "地址": "地址 江苏省南京市建邺区地铁2号线奥体东站16号",
                "电话": "电话 15996448202"
            }
        },
        {
            "type": "Feature",
            "geometry": {
                "type": "Point",
                "coordinates": [
                    118.790824,
                    32.097331
                ]
            },
            "properties": {
                "店名": "回味鸭血粉丝汤(中央门店)",
                "地址": "地址 南京市玄武区龙蟠路1号南京商厦F1",
                "电话": "电话 (025)85659044"
            }
        },
        {
            "type": "Feature",
            "geometry": {
                "type": "Point",
                "coordinates": [
                    118.836235,
                    32.026508
                ]
            },
            "properties": {
                "店名": "回味鸭血粉丝汤(紫金店)",
                "地址": "地址 江苏省南京市秦淮区月牙湖街道苜蓿园大街石门坎165号北京华联超市F1层10103-F1-013号",
                "电话": "电话 (025)82224886"
            }
        },
        {
            "type": "Feature",
            "geometry": {
                "type": "Point",
                "coordinates": [
                    118.824784,
                    32.077205
                ]
            },
            "properties": {
                "店名": "金原鸭血粉丝(锁金村店)",
                "地址": "地址 江苏省南京市玄武区板仓街21幢101室",
                "电话": "电话 13405845586"
            }
        },
        {
            "type": "Feature",
            "geometry": {
                "type": "Point",
                "coordinates": [
                    118.883263,
                    31.736114
                ]
            },
            "properties": {
                "店名": "回味鸭血粉丝汤(禄口机场店)",
                "地址": "地址 江苏南京市江宁区空港路南京禄口国际机场2号航站楼3楼",
                "电话": "电话 (025)69823406"
            }
        },
        {
            "type": "Feature",
            "geometry": {
                "type": "Point",
                "coordinates": [
                    118.786808,
                    32.097979
                ]
            },
            "properties": {
                "店名": "回味鸭血粉丝汤(玉桥商业广场店)",
                "地址": "地址 江苏省南京市鼓楼区建宁路8号玉桥商业广场F1",
                "电话": "电话 (025)58013066"
            }
        },
        {
            "type": "Feature",
            "geometry": {
                "type": "Point",
                "coordinates": [
                    118.735553,
                    32.134185
                ]
            },
            "properties": {
                "店名": "回味鸭血粉丝汤(华侨广场店)",
                "地址": "地址 南京市浦口区大桥北路1号华侨广场F1",
                "电话": "电话 (025)58578377"
            }
        },
        {
            "type": "Feature",
            "geometry": {
                "type": "Point",
                "coordinates": [
                    118.886279,
                    32.003364
                ]
            },
            "properties": {
                "店名": "秀兰鸭血粉丝(大理聚福城店)",
                "地址": "地址 江苏省南京市江宁区万福路99号",
                "电话": "电话 19952411114"
            }
        },
        {
            "type": "Feature",
            "geometry": {
                "type": "Point",
                "coordinates": [
                    118.907349,
                    32.094332
                ]
            },
            "properties": {
                "店名": "金原鸭血粉丝汤(仙鹤门旗舰店)",
                "地址": "地址 江苏省南京市玄武区鹤鸣路52-29号29号",
                "电话": "电话 13057548227"
            }
        },
        {
            "type": "Feature",
            "geometry": {
                "type": "Point",
                "coordinates": [
                    118.740014,
                    32.048529
                ]
            },
            "properties": {
                "店名": "云记鸭血粉丝(东宝路店)",
                "地址": "地址 江苏省南京市鼓楼区东宝路5号105室",
                "电话": "电话 13270810001,18652999613"
            }
        },
        {
            "type": "Feature",
            "geometry": {
                "type": "Point",
                "coordinates": [
                    118.737109,
                    31.957898
                ]
            },
            "properties": {
                "店名": "回味鸭血粉丝汤(善水湾店)",
                "地址": "地址 江苏省南京市雨花台区陇淮路15号g2号",
                "电话": "电话 (025)85319517"
            }
        },
        {
            "type": "Feature",
            "geometry": {
                "type": "Point",
                "coordinates": [
                    118.882727,
                    32.121621
                ]
            },
            "properties": {
                "店名": "回味鸭血粉丝汤(尧佳路店)",
                "地址": "地址 江苏省南京市栖霞区尧佳路7号上城广场18幢18-9室",
                "电话": "电话 (025)58786098"
            }
        },
        {
            "type": "Feature",
            "geometry": {
                "type": "Point",
                "coordinates": [
                    118.93072,
                    32.053497
                ]
            },
            "properties": {
                "店名": "叶新小吃(麒麟门店)",
                "地址": "地址 丹青路188号",
                "电话": "电话 15850745307"
            }
        },
        {
            "type": "Feature",
            "geometry": {
                "type": "Point",
                "coordinates": [
                    118.80919,
                    32.088283
                ]
            },
            "properties": {
                "店名": "黄焖鸡米饭鸭血粉丝汤(龙蟠路店)",
                "地址": "地址 玄武区龙蟠路53号老蔡早餐隔壁",
                "电话": "电话 18816214118"
            }
        },
        {
            "type": "Feature",
            "geometry": {
                "type": "Point",
                "coordinates": [
                    118.797385,
                    32.052592
                ]
            },
            "properties": {
                "店名": "笑云开汤包店(网巾市店)",
                "地址": "地址 江苏省南京市玄武区长江路网巾市23号",
                "电话": "电话 17714181511"
            }
        },
        {
            "type": "Feature",
            "geometry": {
                "type": "Point",
                "coordinates": [
                    118.778161,
                    32.075134
                ]
            },
            "properties": {
                "店名": "金陵老鸭粉丝汤(人和街店)",
                "地址": "地址 江苏省南京市鼓楼区人和街3号",
                "电话": "电话 (025)83208863,15996278332"
            }
        },
        {
            "type": "Feature",
            "geometry": {
                "type": "Point",
                "coordinates": [
                    118.882949,
                    31.944845
                ]
            },
            "properties": {
                "店名": "回味鸭血粉丝汤(青年广场店)",
                "地址": "地址 江苏省南京市江宁区高新园天元东路38号(义乌小商品城3幢10~103室)",
                "电话": "电话 (025)52290969"
            }
        },
        {
            "type": "Feature",
            "geometry": {
                "type": "Point",
                "coordinates": [
                    118.885516,
                    32.004612
                ]
            },
            "properties": {
                "店名": "回味鸭血粉丝汤(润发路店)",
                "地址": "地址 江苏省南京市江宁区润发路9号南方时代广场F1",
                "电话": "电话 (025)87732770"
            }
        },
        {
            "type": "Feature",
            "geometry": {
                "type": "Point",
                "coordinates": [
                    118.796087,
                    32.068521
                ]
            },
            "properties": {
                "店名": "金立鸭血粉丝汤(峨眉路店)",
                "地址": "地址 江苏省南京市玄武区峨眉路25号",
                "电话": NaN
            }
        },
        {
            "type": "Feature",
            "geometry": {
                "type": "Point",
                "coordinates": [
                    118.802527,
                    32.092839
                ]
            },
            "properties": {
                "店名": "金原鸭血粉丝(南京站店)",
                "地址": "地址 江苏省南京市玄武区龙蟠路111号南京站1F层",
                "电话": NaN
            }
        },
        {
            "type": "Feature",
            "geometry": {
                "type": "Point",
                "coordinates": [
                    118.767343,
                    31.997769
                ]
            },
            "properties": {
                "店名": "老鸭粉丝汤包(小行路店)",
                "地址": "地址 江苏省南京市雨花台区小行路10-3号",
                "电话": "电话 19951987737"
            }
        },
        {
            "type": "Feature",
            "geometry": {
                "type": "Point",
                "coordinates": [
                    118.81586,
                    31.988862
                ]
            },
            "properties": {
                "店名": "金原鸭血粉丝汤(汇景路店)",
                "地址": "地址 江苏省南京市秦淮区汇景路114号",
                "电话": "电话 18724010650"
            }
        },
        {
            "type": "Feature",
            "geometry": {
                "type": "Point",
                "coordinates": [
                    118.844258,
                    32.347928
                ]
            },
            "properties": {
                "店名": "镇江老鸭粉丝馆(六合前街店)",
                "地址": "地址 江苏省南京市六合区雄州镇河滨花园14幢106室",
                "电话": "电话 13852168383"
            }
        },
        {
            "type": "Feature",
            "geometry": {
                "type": "Point",
                "coordinates": [
                    118.777725,
                    32.070013
                ]
            },
            "properties": {
                "店名": "鸭煲老鸭粉丝汤",
                "地址": "地址 江苏省南京市鼓楼区大方巷87号108室",
                "电话": "电话 13016962716"
            }
        },
        {
            "type": "Feature",
            "geometry": {
                "type": "Point",
                "coordinates": [
                    119.069837,
                    32.184018
                ]
            },
            "properties": {
                "店名": "老兵鸭血粉丝店(怡江苑店)",
                "地址": "地址 江苏省南京市栖霞区龙潭南街江畔人家怡江苑3栋104室",
                "电话": "电话 18921442533"
            }
        },
        {
            "type": "Feature",
            "geometry": {
                "type": "Point",
                "coordinates": [
                    118.829839,
                    31.95021
                ]
            },
            "properties": {
                "店名": "秀兰鸭血粉丝(同曦店)",
                "地址": "地址 江苏省南京市江宁区步行街a6-19号",
                "电话": "电话 18952012108"
            }
        },
        {
            "type": "Feature",
            "geometry": {
                "type": "Point",
                "coordinates": [
                    118.8899,
                    32.151181
                ]
            },
            "properties": {
                "店名": "老兵盖浇饭",
                "地址": "地址 江苏省南京市栖霞区恒通大道50-8号",
                "电话": "电话 17312277764"
            }
        },
        {
            "type": "Feature",
            "geometry": {
                "type": "Point",
                "coordinates": [
                    118.738502,
                    32.059112
                ]
            },
            "properties": {
                "店名": "猫姐鸭血粉丝",
                "地址": "地址 江苏省南京市鼓楼区银城街1号102号银城花园(苏果便利旁)",
                "电话": "电话 13611513616"
            }
        },
        {
            "type": "Feature",
            "geometry": {
                "type": "Point",
                "coordinates": [
                    118.768517,
                    31.98474
                ]
            },
            "properties": {
                "店名": "回味鸭血粉丝(建发紫悦广场店)",
                "地址": "地址 南京市雨花台区安德门大街32号建发紫悦广场B1",
                "电话": NaN
            }
        },
        {
            "type": "Feature",
            "geometry": {
                "type": "Point",
                "coordinates": [
                    119.069153,
                    32.06206
                ]
            },
            "properties": {
                "店名": "品味鸭血粉丝(汤山店)",
                "地址": "地址 南京市江宁区内街南京汤山镇中心幼儿园东北侧约110米",
                "电话": "电话 18952029732"
            }
        },
        {
            "type": "Feature",
            "geometry": {
                "type": "Point",
                "coordinates": [
                    118.756505,
                    32.237104
                ]
            },
            "properties": {
                "店名": "石记贡味鸭血粉丝汤(欣乐路店)",
                "地址": "地址 六合区欣乐路237号(化工学院对面)",
                "电话": "电话 13813955303"
            }
        },
        {
            "type": "Feature",
            "geometry": {
                "type": "Point",
                "coordinates": [
                    118.942035,
                    32.328747
                ]
            },
            "properties": {
                "店名": "奇味鸭血粉丝",
                "地址": "地址 江苏省南京市六合区天石路150号",
                "电话": "电话 15295719695"
            }
        },
        {
            "type": "Feature",
            "geometry": {
                "type": "Point",
                "coordinates": [
                    118.98873,
                    31.868826
                ]
            },
            "properties": {
                "店名": "金原鸭血粉丝汤(湖熟店)",
                "地址": "地址 江苏省南京市江宁区灵顺北路68号",
                "电话": "电话 13073478061"
            }
        },
        {
            "type": "Feature",
            "geometry": {
                "type": "Point",
                "coordinates": [
                    118.799869,
                    32.05608
                ]
            },
            "properties": {
                "店名": "小李汤包(湖南米粉面条店)",
                "地址": "地址 江苏省南京市玄武区大纱帽巷38号6栋102号",
                "电话": "电话 13815442117"
            }
        },
        {
            "type": "Feature",
            "geometry": {
                "type": "Point",
                "coordinates": [
                    118.85706,
                    31.948485
                ]
            },
            "properties": {
                "店名": "叶新鸭血粉丝(新亭路店)",
                "地址": "地址 江苏省南京市江宁区新亭路222号",
                "电话": "电话 13851929172"
            }
        },
        {
            "type": "Feature",
            "geometry": {
                "type": "Point",
                "coordinates": [
                    118.752107,
                    32.228419
                ]
            },
            "properties": {
                "店名": "胡氏鸭血粉丝牛肉砂锅(新华路店)",
                "地址": "地址 江苏省南京市六合区新华路121号1栋",
                "电话": "电话 13951634367"
            }
        },
        {
            "type": "Feature",
            "geometry": {
                "type": "Point",
                "coordinates": [
                    118.71544,
                    32.148602
                ]
            },
            "properties": {
                "店名": "金顺鸭血粉丝汤",
                "地址": "地址 浦口区南京市北新区泰山街道泰西路28号泰山庙菜市场(内东门3号门面)",
                "电话": "电话 13584020230,13584033499"
            }
        },
        {
            "type": "Feature",
            "geometry": {
                "type": "Point",
                "coordinates": [
                    118.895992,
                    31.938835
                ]
            },
            "properties": {
                "店名": "金陵鸭血粉丝(经贸学院路店)",
                "地址": "地址 江苏省南京市江宁区淳化街道经贸学院路8号云樾广场9栋一层133号商铺",
                "电话": "电话 19952401606"
            }
        },
        {
            "type": "Feature",
            "geometry": {
                "type": "Point",
                "coordinates": [
                    118.880228,
                    32.119604
                ]
            },
            "properties": {
                "店名": "七家湾牛肉锅贴原味鸭血粉丝汤(尧新...",
                "地址": "地址 江苏省南京市栖霞区尧佳路4号",
                "电话": "电话 13405833757"
            }
        },
        {
            "type": "Feature",
            "geometry": {
                "type": "Point",
                "coordinates": [
                    118.894041,
                    32.13144
                ]
            },
            "properties": {
                "店名": "老南京特色鸭血粉丝汤",
                "地址": "地址 尧化街道金聚中心6幢5室",
                "电话": "电话 18523888281"
            }
        },
        {
            "type": "Feature",
            "geometry": {
                "type": "Point",
                "coordinates": [
                    118.825922,
                    32.144246
                ]
            },
            "properties": {
                "店名": "真味鸭血粉丝汤",
                "地址": "地址 南京市栖霞区化新路化工新村东侧约30米",
                "电话": NaN
            }
        },
        {
            "type": "Feature",
            "geometry": {
                "type": "Point",
                "coordinates": [
                    118.885029,
                    31.69201
                ]
            },
            "properties": {
                "店名": "胡记鸭血粉丝砂锅店(铜山店)",
                "地址": "地址 江苏省南京市江宁区禄口街道铜山铜岭新村6-5-1号",
                "电话": "电话 15896454007"
            }
        },
        {
            "type": "Feature",
            "geometry": {
                "type": "Point",
                "coordinates": [
                    118.850737,
                    32.024291
                ]
            },
            "properties": {
                "店名": "金原鸭血粉丝汤(金龙花园店)",
                "地址": "地址 秦淮区友谊河路1号0507幢底层(浩满农贸市场)A3号商铺",
                "电话": "电话 15950587147"
            }
        },
        {
            "type": "Feature",
            "geometry": {
                "type": "Point",
                "coordinates": [
                    NaN,
                    NaN
                ]
            },
            "properties": {
                "店名": "金原老鸭粉丝汤",
                "地址": "地址 江苏省南京市栖霞区学森路22号",
                "电话": "  118.985396,32.129745"
            }
        },
        {
            "type": "Feature",
            "geometry": {
                "type": "Point",
                "coordinates": [
                    118.734142,
                    32.225673
                ]
            },
            "properties": {
                "店名": "任记鲜肉馄饨鸭血粉丝",
                "地址": "地址 江苏省南京市六合区葛中南路551号551号外3号",
                "电话": "电话 15951756607"
            }
        },
        {
            "type": "Feature",
            "geometry": {
                "type": "Point",
                "coordinates": [
                    NaN,
                    NaN
                ]
            },
            "properties": {
                "店名": "回味鸭血粉丝汤(绿地店)",
                "地址": "地址 南京市锦绣路5-12号商铺一层",
                "电话": "  118.797251,31.973255"
            }
        },
        {
            "type": "Feature",
            "geometry": {
                "type": "Point",
                "coordinates": [
                    119.069138,
                    32.062042
                ]
            },
            "properties": {
                "店名": "老街正宗黄焖鸡米饭(老街店)",
                "地址": "地址 江苏省南京市江宁区汤泉东路44号",
                "电话": "电话 15952087106,15996219055"
            }
        },
        {
            "type": "Feature",
            "geometry": {
                "type": "Point",
                "coordinates": [
                    119.051414,
                    31.683806
                ]
            },
            "properties": {
                "店名": "津津老鸭粉丝馆(同城荟店)",
                "地址": "地址 秦淮大道同城荟13栋102",
                "电话": "电话 13851429504"
            }
        },
        {
            "type": "Feature",
            "geometry": {
                "type": "Point",
                "coordinates": [
                    118.855684,
                    32.042558
                ]
            },
            "properties": {
                "店名": "阿兰老家鸭血粉丝汤包(东元山庄店)",
                "地址": "地址 江苏省南京市玄武区小卫街228号",
                "电话": "电话 13770678841"
            }
        },
        {
            "type": "Feature",
            "geometry": {
                "type": "Point",
                "coordinates": [
                    118.802627,
                    32.092926
                ]
            },
            "properties": {
                "店名": "老鸭粉丝汤",
                "地址": "地址 红山街道龙蟠路111号南京站25F层",
                "电话": NaN
            }
        },
        {
            "type": "Feature",
            "geometry": {
                "type": "Point",
                "coordinates": [
                    118.773521,
                    32.035677
                ]
            },
            "properties": {
                "店名": "守创金陵鸭血粉丝(建邺店)",
                "地址": "地址 长虹路5号2.10",
                "电话": NaN
            }
        },
        {
            "type": "Feature",
            "geometry": {
                "type": "Point",
                "coordinates": [
                    118.857306,
                    32.345745
                ]
            },
            "properties": {
                "店名": "凌周轩阁黄焖鸡米饭",
                "地址": "地址 江苏省南京市六合区白果南路仁和商住楼1幢1层106室商铺",
                "电话": "电话 18912915957"
            }
        },
        {
            "type": "Feature",
            "geometry": {
                "type": "Point",
                "coordinates": [
                    119.002313,
                    32.147133
                ]
            },
            "properties": {
                "店名": "金陵一绝鸭血粉丝",
                "地址": "地址 西岗街道步青路摄山星城农贸市场小吃街商铺008号",
                "电话": "电话 18260096838"
            }
        },
        {
            "type": "Feature",
            "geometry": {
                "type": "Point",
                "coordinates": [
                    118.871244,
                    32.099644
                ]
            },
            "properties": {
                "店名": "好来鸭血粉丝黄焖鸡米饭",
                "地址": "地址 聚宝路红豆街区2栋-1号",
                "电话": "电话 15996361363"
            }
        },
        {
            "type": "Feature",
            "geometry": {
                "type": "Point",
                "coordinates": [
                    118.642085,
                    32.069858
                ]
            },
            "properties": {
                "店名": "金原老鸭粉丝汤(龙华路店)",
                "地址": "地址 江苏省南京市浦口区文德东路1~5号",
                "电话": "电话 19941528526"
            }
        },
        {
            "type": "Feature",
            "geometry": {
                "type": "Point",
                "coordinates": [
                    118.790211,
                    32.026556
                ]
            },
            "properties": {
                "店名": "百味轩老鸭粉丝汤包",
                "地址": "地址 江苏省南京市秦淮区中华路292号",
                "电话": "电话 13770771594"
            }
        },
        {
            "type": "Feature",
            "geometry": {
                "type": "Point",
                "coordinates": [
                    118.861867,
                    31.95539
                ]
            },
            "properties": {
                "店名": "享味鸭血粉丝(东新南路店)",
                "地址": "地址 江苏省南京市江宁区东新南路399-88号",
                "电话": "电话 (025)81544898"
            }
        },
        {
            "type": "Feature",
            "geometry": {
                "type": "Point",
                "coordinates": [
                    118.840999,
                    32.046443
                ]
            },
            "properties": {
                "店名": "吴记老鸭粉丝汤",
                "地址": "地址 江苏省南京市玄武区中山门大街9号紫金文化广场南侧A06",
                "电话": NaN
            }
        },
        {
            "type": "Feature",
            "geometry": {
                "type": "Point",
                "coordinates": [
                    118.795328,
                    32.024361
                ]
            },
            "properties": {
                "店名": "冯鑫记南京鸭血粉丝汤(瞻园路店)",
                "地址": "地址 江苏省南京市秦淮区夫子庙街道夫子庙北门钞库街38号",
                "电话": "电话 13601459577"
            }
        },
        {
            "type": "Feature",
            "geometry": {
                "type": "Point",
                "coordinates": [
                    118.615345,
                    31.87265
                ]
            },
            "properties": {
                "店名": "鸡汁汤包鸭血粉丝",
                "地址": "地址 南京市江宁区静安街府前小区西北侧约240米",
                "电话": NaN
            }
        },
        {
            "type": "Feature",
            "geometry": {
                "type": "Point",
                "coordinates": [
                    118.977052,
                    31.311684
                ]
            },
            "properties": {
                "店名": "老鸭粉丝汤",
                "地址": "地址 固城街道育才西路47号",
                "电话": "电话 13151552032"
            }
        },
        {
            "type": "Feature",
            "geometry": {
                "type": "Point",
                "coordinates": [
                    118.887873,
                    32.122342
                ]
            },
            "properties": {
                "店名": "丫头鸭血粉丝羊肉汤",
                "地址": "地址 新尧路金尧集贸市场55号",
                "电话": "电话 13770920840"
            }
        },
        {
            "type": "Feature",
            "geometry": {
                "type": "Point",
                "coordinates": [
                    118.737083,
                    32.207594
                ]
            },
            "properties": {
                "店名": "正宗镇江老鸭粉丝馆(盘金华府店)",
                "地址": "地址 南京市浦口区新华西路盘金华府",
                "电话": NaN
            }
        },
        {
            "type": "Feature",
            "geometry": {
                "type": "Point",
                "coordinates": [
                    118.823449,
                    32.129436
                ]
            },
            "properties": {
                "店名": "老鸭粉丝牛羊肉汤",
                "地址": "地址 南京市栖霞区江苏路幕府山庄",
                "电话": NaN
            }
        },
        {
            "type": "Feature",
            "geometry": {
                "type": "Point",
                "coordinates": [
                    118.797758,
                    32.095012
                ]
            },
            "properties": {
                "店名": "南京鸭血粉丝汤(龙蟠路店)",
                "地址": "地址 南京市玄武区龙蟠路韶山路246号院",
                "电话": NaN
            }
        },
        {
            "type": "Feature",
            "geometry": {
                "type": "Point",
                "coordinates": [
                    118.776019,
                    32.081944
                ]
            },
            "properties": {
                "店名": "小双畅鸭血粉丝汤",
                "地址": "地址 江苏省南京市鼓楼区将军庙40号25号店铺",
                "电话": NaN
            }
        },
        {
            "type": "Feature",
            "geometry": {
                "type": "Point",
                "coordinates": [
                    118.730322,
                    32.123469
                ]
            },
            "properties": {
                "店名": "金原鸭血粉丝汤(浦珠北路118分店)",
                "地址": "地址 南京市浦口区华美路大华锦绣华城-桂美颂",
                "电话": NaN
            }
        },
        {
            "type": "Feature",
            "geometry": {
                "type": "Point",
                "coordinates": [
                    118.789551,
                    32.044414
                ]
            },
            "properties": {
                "店名": "叶新鸭血粉丝汤(石鼓路店)",
                "地址": "地址 江苏省南京市秦淮区石鼓路5号102室",
                "电话": NaN
            }
        },
        {
            "type": "Feature",
            "geometry": {
                "type": "Point",
                "coordinates": [
                    118.782539,
                    32.073685
                ]
            },
            "properties": {
                "店名": "金原鸭血粉丝汤(乐业村店)",
                "地址": "地址 江苏省南京市鼓楼区湖北路63号",
                "电话": "电话 15251832586"
            }
        },
        {
            "type": "Feature",
            "geometry": {
                "type": "Point",
                "coordinates": [
                    NaN,
                    118.797593
                ]
            },
            "properties": {
                "店名": "老金陵鸭血粉丝汤",
                "地址": "地址 江苏省南京市秦淮区平江府路8号",
                "电话": NaN
            }
        },
        {
            "type": "Feature",
            "geometry": {
                "type": "Point",
                "coordinates": [
                    NaN,
                    118.799623
                ]
            },
            "properties": {
                "店名": "金陵王记鸭血粉丝汤",
                "地址": "地址 江苏省南京市秦淮区夫子庙街道平江府路146号",
                "电话": NaN
            }
        },
        {
            "type": "Feature",
            "geometry": {
                "type": "Point",
                "coordinates": [
                    NaN,
                    118.849736
                ]
            },
            "properties": {
                "店名": "守艺鸭血粉丝汤",
                "地址": "地址 南京市六合区延安路中国工商银行(六合支行)西侧约50米",
                "电话": NaN
            }
        },
        {
            "type": "Feature",
            "geometry": {
                "type": "Point",
                "coordinates": [
                    NaN,
                    118.836433
                ]
            },
            "properties": {
                "店名": "金原鸭血粉丝汤(营苑南路店)",
                "地址": "地址 江苏省南京市玄武区月苑小区门面房11号",
                "电话": NaN
            }
        },
        {
            "type": "Feature",
            "geometry": {
                "type": "Point",
                "coordinates": [
                    NaN,
                    118.857564
                ]
            },
            "properties": {
                "店名": "金陵鸭血粉丝(中山陵商业街店)",
                "地址": "地址 南京市玄武区邮局西路中山陵园风景区",
                "电话": NaN
            }
        },
        {
            "type": "Feature",
            "geometry": {
                "type": "Point",
                "coordinates": [
                    NaN,
                    118.857244
                ]
            },
            "properties": {
                "店名": "快园·鸭血粉丝汤",
                "地址": "地址 南京市博爱西路7-2号",
                "电话": NaN
            }
        },
        {
            "type": "Feature",
            "geometry": {
                "type": "Point",
                "coordinates": [
                    NaN,
                    118.763857
                ]
            },
            "properties": {
                "店名": "郭记鸭血粉丝水饺面馆",
                "地址": "地址 江苏省南京市鼓楼区四平路68号",
                "电话": NaN
            }
        },
        {
            "type": "Feature",
            "geometry": {
                "type": "Point",
                "coordinates": [
                    NaN,
                    118.853353
                ]
            },
            "properties": {
                "店名": "老鸭粉丝馆",
                "地址": "地址 六合区东泰公寓",
                "电话": NaN
            }
        },
        {
            "type": "Feature",
            "geometry": {
                "type": "Point",
                "coordinates": [
                    119.039731,
                    31.681883
                ]
            },
            "properties": {
                "店名": "津津老鸭粉丝馆(碧水家园店)",
                "地址": "地址 江苏省南京市溧水区机场路11号",
                "电话": "电话 15335146396"
            }
        },
        {
            "type": "Feature",
            "geometry": {
                "type": "Point",
                "coordinates": [
                    118.925948,
                    31.906809
                ]
            },
            "properties": {
                "店名": "中国药科大学-鸭血粉丝",
                "地址": "地址 江苏省南京市江宁区中国药科大学江宁校区二餐厅",
                "电话": NaN
            }
        },
        {
            "type": "Feature",
            "geometry": {
                "type": "Point",
                "coordinates": [
                    118.768601,
                    32.111588
                ]
            },
            "properties": {
                "店名": "老鸭粉丝汤包",
                "地址": "地址 南京市鼓楼区金燕路95号院",
                "电话": NaN
            }
        },
        {
            "type": "Feature",
            "geometry": {
                "type": "Point",
                "coordinates": [
                    118.937152,
                    32.42703
                ]
            },
            "properties": {
                "店名": "根英老鸭粉丝汤",
                "地址": "地址 江苏省南京市六合区招贤西路173号",
                "电话": "电话 13913815466"
            }
        },
        {
            "type": "Feature",
            "geometry": {
                "type": "Point",
                "coordinates": [
                    118.726999,
                    32.213128
                ]
            },
            "properties": {
                "店名": "镇江老鸭粉丝(盘新路店)",
                "地址": "地址 浦口区盘锦花园26栋(南信大北门对面)",
                "电话": "电话 13951772640"
            }
        },
        {
            "type": "Feature",
            "geometry": {
                "type": "Point",
                "coordinates": [
                    118.960881,
                    32.154696
                ]
            },
            "properties": {
                "店名": "金陵汤包(栖霞景区店)",
                "地址": "地址 江苏省南京市栖霞区栖霞街68-15号",
                "电话": "电话 15051899202"
            }
        },
        {
            "type": "Feature",
            "geometry": {
                "type": "Point",
                "coordinates": [
                    118.926334,
                    31.90775
                ]
            },
            "properties": {
                "店名": "鸭血粉丝药科大学二食堂(药科大学店)",
                "地址": "地址 江苏省南京市江宁区龙眠大道639号3楼",
                "电话": "电话 13072570325"
            }
        },
        {
            "type": "Feature",
            "geometry": {
                "type": "Point",
                "coordinates": [
                    118.896464,
                    31.961896
                ]
            },
            "properties": {
                "店名": "小丹阳鸭血粉丝店(上坊店)",
                "地址": "地址 南京市江宁区嘉茂路上坊新城东侧约50米",
                "电话": "电话 18913393687"
            }
        },
        {
            "type": "Feature",
            "geometry": {
                "type": "Point",
                "coordinates": [
                    118.804802,
                    32.106844
                ]
            },
            "properties": {
                "店名": "周莉老鸭粉丝汤包(燕亭路店)",
                "地址": "地址 江苏省南京市鼓楼区燕亭路2号6栋136室",
                "电话": "电话 13851880244"
            }
        },
        {
            "type": "Feature",
            "geometry": {
                "type": "Point",
                "coordinates": [
                    119.003283,
                    32.274827
                ]
            },
            "properties": {
                "店名": "鸭血粉丝汤(新大街店)",
                "地址": "地址 江苏省南京市六合区新大街64号",
                "电话": "电话 13913031363"
            }
        },
        {
            "type": "Feature",
            "geometry": {
                "type": "Point",
                "coordinates": [
                    118.816544,
                    32.107551
                ]
            },
            "properties": {
                "店名": "鸭血粉丝安庆馄饨",
                "地址": "地址 南京市栖霞区红山路高家村-42号",
                "电话": NaN
            }
        },
        {
            "type": "Feature",
            "geometry": {
                "type": "Point",
                "coordinates": [
                    118.902696,
                    32.042745
                ]
            },
            "properties": {
                "店名": "房镇江锅盖面(苏润万家超市旁)",
                "地址": "地址 南京市栖霞区百水桥南路南湾营煦康苑",
                "电话": "电话 13851711106"
            }
        },
        {
            "type": "Feature",
            "geometry": {
                "type": "Point",
                "coordinates": [
                    118.793019,
                    32.046263
                ]
            },
            "properties": {
                "店名": "桂源鸭血粉丝汤(时尚莱迪店)",
                "地址": "地址 江苏省南京市秦淮区38号时尚莱迪f1楼",
                "电话": NaN
            }
        },
        {
            "type": "Feature",
            "geometry": {
                "type": "Point",
                "coordinates": [
                    118.729963,
                    32.146932
                ]
            },
            "properties": {
                "店名": "品香老鸭粉丝汤包",
                "地址": "地址 柳洲东路6号03幢113室",
                "电话": NaN
            }
        },
        {
            "type": "Feature",
            "geometry": {
                "type": "Point",
                "coordinates": [
                    118.793498,
                    32.058685
                ]
            },
            "properties": {
                "店名": "南京鸭血粉丝汤(丹凤街店)",
                "地址": "地址 丹凤街吉兆花园1号101室(吉兆营路口)",
                "电话": NaN
            }
        },
        {
            "type": "Feature",
            "geometry": {
                "type": "Point",
                "coordinates": [
                    118.738317,
                    32.059115
                ]
            },
            "properties": {
                "店名": "金陵鸭血粉丝(银城街店)",
                "地址": "地址 江苏省南京市鼓楼区银城街银城花园北区15号101",
                "电话": "电话 13814002158"
            }
        },
        {
            "type": "Feature",
            "geometry": {
                "type": "Point",
                "coordinates": [
                    118.768371,
                    32.236356
                ]
            },
            "properties": {
                "店名": "金中鸭血粉丝汤(南化九村东)",
                "地址": "地址 十村长冲步行街110号",
                "电话": NaN
            }
        },
        {
            "type": "Feature",
            "geometry": {
                "type": "Point",
                "coordinates": [
                    118.796378,
                    32.027324
                ]
            },
            "properties": {
                "店名": "杨记鸭血粉丝",
                "地址": "地址 江苏省南京市秦淮区大石坝街79号",
                "电话": NaN
            }
        },
        {
            "type": "Feature",
            "geometry": {
                "type": "Point",
                "coordinates": [
                    118.737656,
                    31.959539
                ]
            },
            "properties": {
                "店名": "康佳鸭血粉丝总店",
                "地址": "地址 江苏省南京市雨花台区西善桥陇淮路福润雅居5B区4号",
                "电话": "电话 18012956881"
            }
        },
        {
            "type": "Feature",
            "geometry": {
                "type": "Point",
                "coordinates": [
                    118.884889,
                    31.945035
                ]
            },
            "properties": {
                "店名": "金陵鸭血粉丝汤(天元东路店)",
                "地址": "地址 江苏省南京市江宁区弘景大道金陵99号南区",
                "电话": NaN
            }
        },
        {
            "type": "Feature",
            "geometry": {
                "type": "Point",
                "coordinates": [
                    118.981463,
                    32.129988
                ]
            },
            "properties": {
                "店名": "金原鸭血粉丝汤(高科荣境店)",
                "地址": "地址 江苏省南京市栖霞区高科荣境商业街百果园正后面广志路16-102号",
                "电话": "电话 (025)85959936"
            }
        },
        {
            "type": "Feature",
            "geometry": {
                "type": "Point",
                "coordinates": [
                    118.817112,
                    32.044886
                ]
            },
            "properties": {
                "店名": "鸭血粉丝·汤包(解放路店)",
                "地址": "地址 江苏省南京市秦淮区解放路7号",
                "电话": NaN
            }
        },
        {
            "type": "Feature",
            "geometry": {
                "type": "Point",
                "coordinates": [
                    118.859608,
                    32.059888
                ]
            },
            "properties": {
                "店名": "南京鸭血粉丝汤(中山陵店)",
                "地址": "地址 江苏省南京市玄武区中山陵商业街南广场7号",
                "电话": "电话 15365158008"
            }
        },
        {
            "type": "Feature",
            "geometry": {
                "type": "Point",
                "coordinates": [
                    118.792971,
                    32.056205
                ]
            },
            "properties": {
                "店名": "鸭血粉丝汤包",
                "地址": "地址 新街口街道珠江路48号(珠江路地铁站4号口步行320米)",
                "电话": NaN
            }
        },
        {
            "type": "Feature",
            "geometry": {
                "type": "Point",
                "coordinates": [
                    118.803991,
                    32.033048
                ]
            },
            "properties": {
                "店名": "秦淮区白下路鸭血粉丝",
                "地址": "地址 江苏省南京市秦淮区洪武路街道白下路7-11号806",
                "电话": NaN
            }
        },
        {
            "type": "Feature",
            "geometry": {
                "type": "Point",
                "coordinates": [
                    118.638467,
                    31.905335
                ]
            },
            "properties": {
                "店名": "金陵汤包一绝",
                "地址": "地址 江苏省南京市雨花台区雄风路426号",
                "电话": "电话 15150575243"
            }
        },
        {
            "type": "Feature",
            "geometry": {
                "type": "Point",
                "coordinates": [
                    118.828455,
                    32.051387
                ]
            },
            "properties": {
                "店名": "邱成宝汤包王鸭血粉丝汤(后宰门街3...",
                "地址": "地址 南京市玄武区后宰门街32号小区",
                "电话": NaN
            }
        },
        {
            "type": "Feature",
            "geometry": {
                "type": "Point",
                "coordinates": [
                    118.803505,
                    32.031328
                ]
            },
            "properties": {
                "店名": "金未栗子",
                "地址": "地址 江苏省南京市秦淮区建康路425-4号",
                "电话": "电话 13913949348"
            }
        },
        {
            "type": "Feature",
            "geometry": {
                "type": "Point",
                "coordinates": [
                    118.842842,
                    31.961929
                ]
            },
            "properties": {
                "店名": "金原鸭血粉丝(黄泥塘路店)",
                "地址": "地址 黄泥塘路116号",
                "电话": "电话 13905141104"
            }
        },
        {
            "type": "Feature",
            "geometry": {
                "type": "Point",
                "coordinates": [
                    118.855758,
                    32.006436
                ]
            },
            "properties": {
                "店名": "鸭血粉丝汤包",
                "地址": "地址 南京市秦淮区梅家廊路银龙花园-二期",
                "电话": NaN
            }
        },
        {
            "type": "Feature",
            "geometry": {
                "type": "Point",
                "coordinates": [
                    118.798556,
                    31.976082
                ]
            },
            "properties": {
                "店名": "金陵小吃(汤包,鸭血粉丝)",
                "地址": "地址 江苏省南京市雨花台区绿都大道13号天禧酒店1楼",
                "电话": "电话 18351986025"
            }
        },
        {
            "type": "Feature",
            "geometry": {
                "type": "Point",
                "coordinates": [
                    118.798556,
                    31.976082
                ]
            },
            "properties": {
                "店名": "金陵小吃(汤包,鸭血粉丝)    ",
                "地址": "地址 江苏省南京市雨花台区绿都大道13号天禧酒店1楼",
                "电话": "电话 18351986025"
            }
        }
    ]
}